{
  "continents": [
    {
      "id": "africa",
      "name": "Africa",
      "cities": [
        {"city": "Cairo", "country": "Egypt", "lat": 30.0444, "lng": 31.2357},
        {"city": "Lagos", "country": "Nigeria", "lat": 6.5244, "lng": 3.3792},
        {"city": "Kinshasa", "country": "DR Congo", "lat": -4.4419, "lng": 15.2663},
        {"city": "Johannesburg", "country": "South Africa", "lat": -26.2041, "lng": 28.0473},
        {"city": "Nairobi", "country": "Kenya", "lat": -1.2921, "lng": 36.8219},
        {"city": "Casablanca", "country": "Morocco", "lat": 33.5731, "lng": -7.5898},
        {"city": "Cape Town", "country": "South Africa", "lat": -33.9249, "lng": 18.4241},
        {"city": "Alexandria", "country": "Egypt", "lat": 31.2001, "lng": 29.9187},
        {"city": "Addis Ababa", "country": "Ethiopia", "lat": 9.0320, "lng": 38.7469},
        {"city": "Dar es Salaam", "country": "Tanzania", "lat": -6.7924, "lng": 39.2083},
        {"city": "Abidjan", "country": "Ivory Coast", "lat": 5.3600, "lng": -4.0083},
        {"city": "Khartoum", "country": "Sudan", "lat": 15.5007, "lng": 32.5599},
        {"city": "Luanda", "country": "Angola", "lat": -8.8399, "lng": 13.2894},
        {"city": "Algiers", "country": "Algeria", "lat": 36.7538, "lng": 3.0588},
        {"city": "Accra", "country": "Ghana", "lat": 5.6037, "lng": -0.1870},
        {"city": "Durban", "country": "South Africa", "lat": -29.8587, "lng": 31.0218},
        {"city": "Tunis", "country": "Tunisia", "lat": 36.8065, "lng": 10.1815},
        {"city": "Dakar", "country": "Senegal", "lat": 14.7167, "lng": -17.4677},
        {"city": "Marrakech", "country": "Morocco", "lat": 31.6295, "lng": -7.9811},
        {"city": "Rabat", "country": "Morocco", "lat": 34.0209, "lng": -6.8416},
        {"city": "Kampala", "country": "Uganda", "lat": 0.3476, "lng": 32.5825},
        {"city": "Abuja", "country": "Nigeria", "lat": 9.0765, "lng": 7.3986},
        {"city": "Pretoria", "country": "South Africa", "lat": -25.7479, "lng": 28.2293},
        {"city": "Mogadishu", "country": "Somalia", "lat": 2.0469, "lng": 45.3182},
        {"city": "Tripoli", "country": "Libya", "lat": 32.8872, "lng": 13.1913},
        {"city": "Harare", "country": "Zimbabwe", "lat": -17.8292, "lng": 31.0522},
        {"city": "Maputo", "country": "Mozambique", "lat": -25.9692, "lng": 32.5732},
        {"city": "Lusaka", "country": "Zambia", "lat": -15.3875, "lng": 28.3228},
        {"city": "Bamako", "country": "Mali", "lat": 12.6392, "lng": -8.0029},
        {"city": "Kigali", "country": "Rwanda", "lat": -1.9403, "lng": 29.8739}
      ]
    },
    {
      "id": "asia",
      "name": "Asia",
      "cities": [
        {"city": "Tokyo", "country": "Japan", "lat": 35.6762, "lng": 139.6503},
        {"city": "Delhi", "country": "India", "lat": 28.7041, "lng": 77.1025, "aliases": ["New Delhi"]},
        {"city": "Shanghai", "country": "China", "lat": 31.2304, "lng": 121.4737},
        {"city": "Beijing", "country": "China", "lat": 39.9042, "lng": 116.4074},
        {"city": "Mumbai", "country": "India", "lat": 19.0760, "lng": 72.8777},
        {"city": "Osaka", "country": "Japan", "lat": 34.6937, "lng": 135.5023},
        {"city": "Dhaka", "country": "Bangladesh", "lat": 23.8103, "lng": 90.4125},
        {"city": "Karachi", "country": "Pakistan", "lat": 24.8607, "lng": 67.0011},
        {"city": "Kolkata", "country": "India", "lat": 22.5726, "lng": 88.3639},
        {"city": "Manila", "country": "Philippines", "lat": 14.5995, "lng": 120.9842},
        {"city": "Guangzhou", "country": "China", "lat": 23.1291, "lng": 113.2644},
        {"city": "Bangkok", "country": "Thailand", "lat": 13.7563, "lng": 100.5018},
        {"city": "Seoul", "country": "South Korea", "lat": 37.5665, "lng": 126.9780},
        {"city": "Shenzhen", "country": "China", "lat": 22.5431, "lng": 114.0579},
        {"city": "Jakarta", "country": "Indonesia", "lat": -6.2088, "lng": 106.8456},
        {"city": "Chennai", "country": "India", "lat": 13.0827, "lng": 80.2707},
        {"city": "Hyderabad", "country": "India", "lat": 17.3850, "lng": 78.4867},
        {"city": "Singapore", "country": "Singapore", "lat": 1.3521, "lng": 103.8198},
        {"city": "Hong Kong", "country": "Hong Kong", "lat": 22.3193, "lng": 114.1694},
        {"city": "Ho Chi Minh City", "country": "Vietnam", "lat": 10.8231, "lng": 106.6297},
        {"city": "Bangalore", "country": "India", "lat": 12.9716, "lng": 77.5946},
        {"city": "Tehran", "country": "Iran", "lat": 35.6892, "lng": 51.3890},
        {"city": "Kuala Lumpur", "country": "Malaysia", "lat": 3.1390, "lng": 101.6869},
        {"city": "Riyadh", "country": "Saudi Arabia", "lat": 24.7136, "lng": 46.6753},
        {"city": "Baghdad", "country": "Iraq", "lat": 33.3152, "lng": 44.3661},
        {"city": "Hanoi", "country": "Vietnam", "lat": 21.0278, "lng": 105.8342},
        {"city": "Taipei", "country": "Taiwan", "lat": 25.0330, "lng": 121.5654},
        {"city": "Dubai", "country": "United Arab Emirates", "lat": 25.2048, "lng": 55.2708},
        {"city": "Chongqing", "country": "China", "lat": 29.4316, "lng": 106.9123},
        {"city": "Tianjin", "country": "China", "lat": 39.3434, "lng": 117.3616},
        {"city": "Lahore", "country": "Pakistan", "lat": 31.5204, "lng": 74.3587},
        {"city": "Wuhan", "country": "China", "lat": 30.5928, "lng": 114.3055},
        {"city": "Nagoya", "country": "Japan", "lat": 35.1815, "lng": 136.9066},
        {"city": "Pune", "country": "India", "lat": 18.5204, "lng": 73.8567},
        {"city": "Ahmedabad", "country": "India", "lat": 23.0225, "lng": 72.5714},
        {"city": "Chengdu", "country": "China", "lat": 30.5728, "lng": 104.0668},
        {"city": "Nanjing", "country": "China", "lat": 32.0603, "lng": 118.7969},
        {"city": "Surat", "country": "India", "lat": 21.1702, "lng": 72.8311},
        {"city": "Xi'an", "country": "China", "lat": 34.3416, "lng": 108.9398},
        {"city": "Suzhou", "country": "China", "lat": 31.2989, "lng": 120.5853},
        {"city": "Hangzhou", "country": "China", "lat": 30.2741, "lng": 120.1551},
        {"city": "Jaipur", "country": "India", "lat": 26.9124, "lng": 75.7873},
        {"city": "Kyoto", "country": "Japan", "lat": 35.0116, "lng": 135.7681},
        {"city": "Fukuoka", "country": "Japan", "lat": 33.5904, "lng": 130.4017},
        {"city": "Sapporo", "country": "Japan", "lat": 43.0618, "lng": 141.3545},
        {"city": "Busan", "country": "South Korea", "lat": 35.1796, "lng": 129.0756},
        {"city": "Kathmandu", "country": "Nepal", "lat": 27.7172, "lng": 85.3240},
        {"city": "Tel Aviv", "country": "Israel", "lat": 32.0853, "lng": 34.7818},
        {"city": "Jerusalem", "country": "Israel", "lat": 31.7683, "lng": 35.2137},
        {"city": "Abu Dhabi", "country": "United Arab Emirates", "lat": 24.4539, "lng": 54.3773},
        {"city": "Doha", "country": "Qatar", "lat": 25.2854, "lng": 51.5310},
        {"city": "Kuwait City", "country": "Kuwait", "lat": 29.3759, "lng": 47.9774},
        {"city": "Muscat", "country": "Oman", "lat": 23.5880, "lng": 58.3829},
        {"city": "Manama", "country": "Bahrain", "lat": 26.2285, "lng": 50.5860},
        {"city": "Baku", "country": "Azerbaijan", "lat": 40.4093, "lng": 49.8671},
        {"city": "Almaty", "country": "Kazakhstan", "lat": 43.2220, "lng": 76.8512},
        {"city": "Tashkent", "country": "Uzbekistan", "lat": 41.2995, "lng": 69.2401},
        {"city": "Phnom Penh", "country": "Cambodia", "lat": 11.5564, "lng": 104.9282},
        {"city": "Yangon", "country": "Myanmar", "lat": 16.8661, "lng": 96.1951},
        {"city": "Colombo", "country": "Sri Lanka", "lat": 6.9271, "lng": 79.8612}
      ]
    },
    {
      "id": "europe",
      "name": "Europe",
      "cities": [
        {"city": "London", "country": "United Kingdom", "lat": 51.5074, "lng": -0.1278},
        {"city": "Paris", "country": "France", "lat": 48.8566, "lng": 2.3522},
        {"city": "Moscow", "country": "Russia", "lat": 55.7558, "lng": 37.6173},
        {"city": "Istanbul", "country": "Turkey", "lat": 41.0082, "lng": 28.9784},
        {"city": "Berlin", "country": "Germany", "lat": 52.5200, "lng": 13.4050},
        {"city": "Madrid", "country": "Spain", "lat": 40.4168, "lng": -3.7038},
        {"city": "Rome", "country": "Italy", "lat": 41.9028, "lng": 12.4964},
        {"city": "Barcelona", "country": "Spain", "lat": 41.3851, "lng": 2.1734},
        {"city": "Saint Petersburg", "country": "Russia", "lat": 59.9311, "lng": 30.3609},
        {"city": "Vienna", "country": "Austria", "lat": 48.2082, "lng": 16.3738},
        {"city": "Amsterdam", "country": "Netherlands", "lat": 52.3676, "lng": 4.9041},
        {"city": "Munich", "country": "Germany", "lat": 48.1351, "lng": 11.5820},
        {"city": "Milan", "country": "Italy", "lat": 45.4642, "lng": 9.1900},
        {"city": "Prague", "country": "Czechia", "lat": 50.0755, "lng": 14.4378},
        {"city": "Brussels", "country": "Belgium", "lat": 50.8503, "lng": 4.3517},
        {"city": "Warsaw", "country": "Poland", "lat": 52.2297, "lng": 21.0122},
        {"city": "Budapest", "country": "Hungary", "lat": 47.4979, "lng": 19.0402},
        {"city": "Lisbon", "country": "Portugal", "lat": 38.7223, "lng": -9.1393},
        {"city": "Stockholm", "country": "Sweden", "lat": 59.3293, "lng": 18.0686},
        {"city": "Copenhagen", "country": "Denmark", "lat": 55.6761, "lng": 12.5683},
        {"city": "Dublin", "country": "Ireland", "lat": 53.3498, "lng": -6.2603},
        {"city": "Helsinki", "country": "Finland", "lat": 60.1699, "lng": 24.9384},
        {"city": "Oslo", "country": "Norway", "lat": 59.9139, "lng": 10.7522},
        {"city": "Athens", "country": "Greece", "lat": 37.9838, "lng": 23.7275},
        {"city": "Zurich", "country": "Switzerland", "lat": 47.3769, "lng": 8.5417},
        {"city": "Geneva", "country": "Switzerland", "lat": 46.2044, "lng": 6.1432},
        {"city": "Kyiv", "country": "Ukraine", "lat": 50.4501, "lng": 30.5234},
        {"city": "Bucharest", "country": "Romania", "lat": 44.4268, "lng": 26.1025},
        {"city": "Belgrade", "country": "Serbia", "lat": 44.7866, "lng": 20.4489},
        {"city": "Sofia", "country": "Bulgaria", "lat": 42.6977, "lng": 23.3219},
        {"city": "Ankara", "country": "Turkey", "lat": 39.9334, "lng": 32.8597},
        {"city": "Edinburgh", "country": "United Kingdom", "lat": 55.9533, "lng": -3.1883},
        {"city": "Manchester", "country": "United Kingdom", "lat": 53.4808, "lng": -2.2426},
        {"city": "Birmingham", "country": "United Kingdom", "lat": 52.4862, "lng": -1.8904},
        {"city": "Liverpool", "country": "United Kingdom", "lat": 53.4084, "lng": -2.9916},
        {"city": "Glasgow", "country": "United Kingdom", "lat": 55.8642, "lng": -4.2518},
        {"city": "Lyon", "country": "France", "lat": 45.7640, "lng": 4.8357},
        {"city": "Marseille", "country": "France", "lat": 43.2965, "lng": 5.3698},
        {"city": "Nice", "country": "France", "lat": 43.7102, "lng": 7.2620},
        {"city": "Bordeaux", "country": "France", "lat": 44.8378, "lng": -0.5792},
        {"city": "Toulouse", "country": "France", "lat": 43.6047, "lng": 1.4442},
        {"city": "Hamburg", "country": "Germany", "lat": 53.5511, "lng": 9.9937},
        {"city": "Frankfurt", "country": "Germany", "lat": 50.1109, "lng": 8.6821},
        {"city": "Cologne", "country": "Germany", "lat": 50.9375, "lng": 6.9603},
        {"city": "Naples", "country": "Italy", "lat": 40.8518, "lng": 14.2681},
        {"city": "Florence", "country": "Italy", "lat": 43.7696, "lng": 11.2558},
        {"city": "Venice", "country": "Italy", "lat": 45.4408, "lng": 12.3155},
        {"city": "Turin", "country": "Italy", "lat": 45.0703, "lng": 7.6869},
        {"city": "Bologna", "country": "Italy", "lat": 44.4949, "lng": 11.3426},
        {"city": "Seville", "country": "Spain", "lat": 37.3891, "lng": -5.9845},
        {"city": "Valencia", "country": "Spain", "lat": 39.4699, "lng": -0.3763},
        {"city": "Porto", "country": "Portugal", "lat": 41.1579, "lng": -8.6291},
        {"city": "Krakow", "country": "Poland", "lat": 50.0647, "lng": 19.9450},
        {"city": "Rotterdam", "country": "Netherlands", "lat": 51.9244, "lng": 4.4777},
        {"city": "Antwerp", "country": "Belgium", "lat": 51.2194, "lng": 4.4025},
        {"city": "Tbilisi", "country": "Georgia", "lat": 41.7151, "lng": 44.8271},
        {"city": "Yerevan", "country": "Armenia", "lat": 40.1792, "lng": 44.4991},
        {"city": "Minsk", "country": "Belarus", "lat": 53.9006, "lng": 27.5590},
        {"city": "Riga", "country": "Latvia", "lat": 56.9496, "lng": 24.1052},
        {"city": "Tallinn", "country": "Estonia", "lat": 59.4370, "lng": 24.7536},
        {"city": "Vilnius", "country": "Lithuania", "lat": 54.6872, "lng": 25.2797},
        {"city": "Reykjavik", "country": "Iceland", "lat": 64.1466, "lng": -21.9426},
        {"city": "Monaco", "country": "Monaco", "lat": 43.7384, "lng": 7.4246}
      ]
    },
    {
      "id": "north_america",
      "name": "North America",
      "cities": [
        {"city": "New York", "country": "United States", "lat": 40.7128, "lng": -74.0060, "aliases": ["NYC", "New York City"]},
        {"city": "Los Angeles", "country": "United States", "lat": 34.0522, "lng": -118.2437, "aliases": ["LA", "L.A."]},
        {"city": "Chicago", "country": "United States", "lat": 41.8781, "lng": -87.6298},
        {"city": "Houston", "country": "United States", "lat": 29.7604, "lng": -95.3698},
        {"city": "Phoenix", "country": "United States", "lat": 33.4484, "lng": -112.0740},
        {"city": "San Francisco", "country": "United States", "lat": 37.7749, "lng": -122.4194, "aliases": ["SF", "San Fran"]},
        {"city": "Seattle", "country": "United States", "lat": 47.6062, "lng": -122.3321},
        {"city": "Miami", "country": "United States", "lat": 25.7617, "lng": -80.1918},
        {"city": "Boston", "country": "United States", "lat": 42.3601, "lng": -71.0589},
        {"city": "Denver", "country": "United States", "lat": 39.7392, "lng": -104.9903},
        {"city": "Austin", "country": "United States", "lat": 30.2672, "lng": -97.7431},
        {"city": "Dallas", "country": "United States", "lat": 32.7767, "lng": -96.7970},
        {"city": "San Diego", "country": "United States", "lat": 32.7157, "lng": -117.1611},
        {"city": "Washington", "country": "United States", "lat": 38.9072, "lng": -77.0369, "aliases": ["Washington DC", "DC"]},
        {"city": "Philadelphia", "country": "United States", "lat": 39.9526, "lng": -75.1652},
        {"city": "Atlanta", "country": "United States", "lat": 33.7490, "lng": -84.3880},
        {"city": "Las Vegas", "country": "United States", "lat": 36.1699, "lng": -115.1398},
        {"city": "Portland", "country": "United States", "lat": 45.5152, "lng": -122.6784},
        {"city": "Nashville", "country": "United States", "lat": 36.1627, "lng": -86.7816},
        {"city": "New Orleans", "country": "United States", "lat": 29.9511, "lng": -90.0715},
        {"city": "Detroit", "country": "United States", "lat": 42.3314, "lng": -83.0458},
        {"city": "Minneapolis", "country": "United States", "lat": 44.9778, "lng": -93.2650},
        {"city": "San Antonio", "country": "United States", "lat": 29.4241, "lng": -98.4936},
        {"city": "Charlotte", "country": "United States", "lat": 35.2271, "lng": -80.8431},
        {"city": "Orlando", "country": "United States", "lat": 28.5383, "lng": -81.3792},
        {"city": "Toronto", "country": "Canada", "lat": 43.6532, "lng": -79.3832},
        {"city": "Montreal", "country": "Canada", "lat": 45.5017, "lng": -73.5673},
        {"city": "Vancouver", "country": "Canada", "lat": 49.2827, "lng": -123.1207},
        {"city": "Calgary", "country": "Canada", "lat": 51.0447, "lng": -114.0719},
        {"city": "Edmonton", "country": "Canada", "lat": 53.5461, "lng": -113.4938},
        {"city": "Ottawa", "country": "Canada", "lat": 45.4215, "lng": -75.6972},
        {"city": "Quebec", "country": "Canada", "lat": 46.8139, "lng": -71.2080},
        {"city": "Winnipeg", "country": "Canada", "lat": 49.8951, "lng": -97.1384},
        {"city": "Mexico City", "country": "Mexico", "lat": 19.4326, "lng": -99.1332},
        {"city": "Guadalajara", "country": "Mexico", "lat": 20.6597, "lng": -103.3496},
        {"city": "Monterrey", "country": "Mexico", "lat": 25.6866, "lng": -100.3161},
        {"city": "Tijuana", "country": "Mexico", "lat": 32.5149, "lng": -117.0382},
        {"city": "Cancun", "country": "Mexico", "lat": 21.1619, "lng": -86.8515},
        {"city": "Havana", "country": "Cuba", "lat": 23.1136, "lng": -82.3666},
        {"city": "Santo Domingo", "country": "Dominican Republic", "lat": 18.4861, "lng": -69.9312},
        {"city": "San Juan", "country": "Puerto Rico", "lat": 18.4655, "lng": -66.1057},
        {"city": "Guatemala City", "country": "Guatemala", "lat": 14.6349, "lng": -90.5069},
        {"city": "Panama City", "country": "Panama", "lat": 8.9824, "lng": -79.5199},
        {"city": "San Jose", "country": "Costa Rica", "lat": 9.9281, "lng": -84.0907},
        {"city": "Kingston", "country": "Jamaica", "lat": 17.9714, "lng": -76.7920},
        {"city": "Nassau", "country": "Bahamas", "lat": 25.0343, "lng": -77.3963},
        {"city": "Port-au-Prince", "country": "Haiti", "lat": 18.5944, "lng": -72.3074}
      ]
    },
    {
      "id": "south_america",
      "name": "South America",
      "cities": [
        {"city": "Sao Paulo", "country": "Brazil", "lat": -23.5505, "lng": -46.6333, "aliases": ["SÃ£o Paulo"]},
        {"city": "Buenos Aires", "country": "Argentina", "lat": -34.6037, "lng": -58.3816},
        {"city": "Rio de Janeiro", "country": "Brazil", "lat": -22.9068, "lng": -43.1729, "aliases": ["Rio"]},
        {"city": "Lima", "country": "Peru", "lat": -12.0464, "lng": -77.0428},
        {"city": "Bogota", "country": "Colombia", "lat": 4.7110, "lng": -74.0721},
        {"city": "Santiago", "country": "Chile", "lat": -33.4489, "lng": -70.6693},
        {"city": "Caracas", "country": "Venezuela", "lat": 10.4806, "lng": -66.9036},
        {"city": "Medellin", "country": "Colombia", "lat": 6.2476, "lng": -75.5658},
        {"city": "Belo Horizonte", "country": "Brazil", "lat": -19.9167, "lng": -43.9345},
        {"city": "Brasilia", "country": "Brazil", "lat": -15.8267, "lng": -47.9218},
        {"city": "Quito", "country": "Ecuador", "lat": -0.1807, "lng": -78.4678},
        {"city": "Guayaquil", "country": "Ecuador", "lat": -2.1710, "lng": -79.9223},
        {"city": "Montevideo", "country": "Uruguay", "lat": -34.9011, "lng": -56.1645},
        {"city": "Asuncion", "country": "Paraguay", "lat": -25.2637, "lng": -57.5759},
        {"city": "La Paz", "country": "Bolivia", "lat": -16.4897, "lng": -68.1193},
        {"city": "Santa Cruz", "country": "Bolivia", "lat": -17.7833, "lng": -63.1821},
        {"city": "Cali", "country": "Colombia", "lat": 3.4516, "lng": -76.5320},
        {"city": "Cartagena", "country": "Colombia", "lat": 10.3910, "lng": -75.4794},
        {"city": "Salvador", "country": "Brazil", "lat": -12.9714, "lng": -38.5014},
        {"city": "Fortaleza", "country": "Brazil", "lat": -3.7172, "lng": -38.5433},
        {"city": "Recife", "country": "Brazil", "lat": -8.0476, "lng": -34.8770},
        {"city": "Porto Alegre", "country": "Brazil", "lat": -30.0346, "lng": -51.2177},
        {"city": "Curitiba", "country": "Brazil", "lat": -25.4290, "lng": -49.2671},
        {"city": "Manaus", "country": "Brazil", "lat": -3.1190, "lng": -60.0217},
        {"city": "Cordoba", "country": "Argentina", "lat": -31.4201, "lng": -64.1888},
        {"city": "Rosario", "country": "Argentina", "lat": -32.9442, "lng": -60.6505},
        {"city": "Mendoza", "country": "Argentina", "lat": -32.8895, "lng": -68.8458},
        {"city": "Valparaiso", "country": "Chile", "lat": -33.0472, "lng": -71.6127},
        {"city": "Arequipa", "country": "Peru", "lat": -16.4090, "lng": -71.5375},
        {"city": "Cusco", "country": "Peru", "lat": -13.5320, "lng": -71.9675}
      ]
    },
    {
      "id": "oceania",
      "name": "Oceania",
      "cities": [
        {"city": "Sydney", "country": "Australia", "lat": -33.8688, "lng": 151.2093},
        {"city": "Melbourne", "country": "Australia", "lat": -37.8136, "lng": 144.9631},
        {"city": "Brisbane", "country": "Australia", "lat": -27.4698, "lng": 153.0251},
        {"city": "Perth", "country": "Australia", "lat": -31.9505, "lng": 115.8605},
        {"city": "Auckland", "country": "New Zealand", "lat": -36.8485, "lng": 174.7633},
        {"city": "Wellington", "country": "New Zealand", "lat": -41.2865, "lng": 174.7762},
        {"city": "Adelaide", "country": "Australia", "lat": -34.9285, "lng": 138.6007},
        {"city": "Gold Coast", "country": "Australia", "lat": -28.0167, "lng": 153.4000},
        {"city": "Canberra", "country": "Australia", "lat": -35.2809, "lng": 149.1300},
        {"city": "Christchurch", "country": "New Zealand", "lat": -43.5321, "lng": 172.6362},
        {"city": "Queenstown", "country": "New Zealand", "lat": -45.0312, "lng": 168.6626},
        {"city": "Hobart", "country": "Australia", "lat": -42.8821, "lng": 147.3272},
        {"city": "Darwin", "country": "Australia", "lat": -12.4634, "lng": 130.8456},
        {"city": "Cairns", "country": "Australia", "lat": -16.9186, "lng": 145.7781},
        {"city": "Suva", "country": "Fiji", "lat": -18.1416, "lng": 178.4419},
        {"city": "Port Moresby", "country": "Papua New Guinea", "lat": -9.4438, "lng": 147.1803},
        {"city": "Honolulu", "country": "United States", "lat": 21.3069, "lng": -157.8583}
      ]
    }
  ]
}
